{"locations":[{"name":"Deja Vu Showgirls Minneapolis","type":"stripclub","address":"315 N Washington Ave, Minneapolis, MN 55401","restriction":"one per block face","latitude":44.984658,"longitude":-93.273377,"icon":"redlight","show":"y"},
{"name":"Choice Gentleman's Club ","type":"stripclub","address":"254 N 2nd Ave, Minneapolis, MN 55401","restriction":"one per block face","latitude":44.983367,"longitude":-93.272284,"icon":"redlight","show":"y"},
{"name":"Rick's Cabaret Minneapolis","type":"stripclub","address":"300 S 3rd St, Minneapolis, MN 55415","restriction":"one per block face","latitude":44.979057,"longitude":-93.264428,"icon":"redlight","show":"y"},
{"name":"Augies Bourbon Street Cabaret","type":"stripclub","address":"424 Hennepin Ave, Minneapolis, MN 55401","restriction":"one per block face","latitude":44.97996,"longitude":-93.27261,"icon":"redlight","show":"y"},
{"name":"Dream Girls Strip Club ","type":"stripclub","address":"12 N 5th St, Minneapolis, MN 55403","restriction":"one per block face","latitude":44.98014,"longitude":-93.27278,"icon":"redlight","show":"y"},
{"name":"The Seville Gentlemen's Club Minneapolis","type":"stripclub","address":"15 Glenwood Ave, Minneapolis, MN 55403","restriction":"one per block face","latitude":44.97868,"longitude":-93.27698,"icon":"redlight","show":"y"},
{"name":"Spearmint Rhino Gentlemen's Club Minneapolis","type":"stripclub","address":"725 Hennepin Ave, Minneapolis, MN 55403","restriction":"one per block face","latitude":44.97742609,"longitude":-93.2754895,"icon":"redlight","show":"y"},
{"name":"Downtown Intimates","type":"sexshop","address":"314 N 1st Ave, Minneapolis, MN 55401","restriction":"one per block face","latitude":44.98193,"longitude":-93.27222,"icon":"redlight","show":"y"},
{"name":"Sexworld","type":"sexshop","address":"241 N 2nd Ave, Minneapolis, MN 55401","restriction":"one per block face","latitude":44.98388524,"longitude":-93.27098651,"icon":"redlight","show":"y"},
{"name":"Lickety Split","type":"sexshop","address":"251 3rd Ave S, Minneapolis, MN 55415","restriction":"one per block face","latitude":44.979188,"longitude":-93.264317,"icon":"redlight","show":"y"},
{"name":"Gay 90's Minneapolis","type":"club","address":"408 Hennepin Ave, Minneapolis, MN 55401","restriction":"one per block face","latitude":44.9805,"longitude":-93.27198,"icon":"redlight","show":"y"},
{"name":"The Saloon","type":"club","address":"830 Hennepin Ave, Minneapolis, MN 55403","restriction":"one per block face","latitude":44.976673,"longitude":-93.276996,"icon":"redlight","show":"y"},
{"name":"Hennepin Avenue United Methodist Church","type":"church","address":"511 Groveland Ave, Minneapolis, MN 55403","restriction":"500 feet","latitude":44.96614,"longitude":-93.28702,"icon":"church","show":"n"},
{"name":"Saint Mark's Episcopal Cathedral","type":"church","address":"519 Oak Grove St, Minneapolis, MN 55403","restriction":"500 feet","latitude":44.96827,"longitude":-93.28682,"icon":"church","show":"n"},
{"name":"Basilica of Saint Mary","type":"church","address":"88 17th St N, Minneapolis, MN 55403","restriction":"500 feet","latitude":44.97301,"longitude":-93.28628,"icon":"church","show":"n"},
{"name":"Wooddale Church - Loring Park Campus","type":"church","address":"1407 Nicollet Ave, Minneapolis, MN 55403","restriction":"500 feet","latitude":44.96867,"longitude":-93.27738,"icon":"church","show":"n"},
{"name":"Substance Church - Downtown","type":"church","address":"101 E Grant St, Minneapolis, MN 55403","restriction":"500 feet","latitude":44.96957,"longitude":-93.27603,"icon":"church","show":"n"},
{"name":"Westminster Presbyterian Church","type":"church","address":"1200 S Marquette Ave, Minneapolis, MN 55403","restriction":"500 feet","latitude":44.971441,"longitude":-93.275869,"icon":"church","show":"n"},
{"name":"Central Lutheran Church","type":"church","address":"333 S 12th St, Minneapolis, MN 55404","restriction":"500 feet","latitude":44.969297,"longitude":-93.27084,"icon":"church","show":"n"},
{"name":"Gethsemane Episcopal Church","type":"church","address":"905 S 4th Ave, Minneapolis, MN 55404","restriction":"500 feet","latitude":44.9722,"longitude":-93.26832,"icon":"church","show":"n"},
{"name":"First Covenant Church Minneapolis","type":"church","address":"810 S 7th St, Minneapolis, MN 55415","restriction":"500 feet","latitude":44.97228,"longitude":-93.26039,"icon":"church","show":"n"},
{"name":"Hope Community Church West ","type":"church","address":"707 10th Ave S, Minneapolis, MN 55415","restriction":"500 feet","latitude":44.9707,"longitude":-93.25858,"icon":"church","show":"n"},
{"name":"Bethlehem Baptist Church, Downtown Campus","type":"church","address":"720 13th Ave S, Minneapolis, MN 55415","restriction":"500 feet","latitude":44.96911,"longitude":-93.25545,"icon":"church","show":"n"},
{"name":"ELCA Board of Pensions","type":"church","address":"800 S Marquette Ave #1050, Minneapolis, MN 55402","restriction":"500 feet","latitude":44.97528,"longitude":-93.27205,"icon":"church","show":"n"},
{"name":"3 Degrees Church","type":"church","address":"119 N 4th St, Minneapolis, MN 55401","restriction":"500 feet","latitude":44.981593,"longitude":-93.273713,"icon":"church","show":"n"},
{"name":"St Olaf Catholic Church","type":"church","address":"215 S 8th St, Minneapolis, MN 55402","restriction":"500 feet","latitude":44.97416,"longitude":-93.26989,"icon":"church","show":"n"},
{"name":"River Valley Church - Minneapolis Campus","type":"church","address":"107 3rd Ave N, Minneapolis, MN 55401","restriction":"500 feet","latitude":44.98574,"longitude":-93.27043,"icon":"church","show":"n"},
{"name":"Corner Church","type":"church","address":"514 N 3rd St, Minneapolis, MN 55401","restriction":"500 feet","latitude":44.985879,"longitude":-93.276091,"icon":"church","show":"n"},
{"name":"First Baptist Church","type":"church","address":"1021 Hennepin Ave # 2, Minneapolis, MN 55403","restriction":"500 feet","latitude":44.97557364,"longitude":-93.27826096,"icon":"church","show":"n"},
{"name":"Atrebla Early Learning Center","type":"childcare","address":"200 East Lyndale Ave N, Minneapolis, MN 55405","restriction":"500 feet","latitude":44.97995,"longitude":-93.28606,"icon":"child","show":"n"},
{"name":"Child Garden Montessori","type":"childcare","address":"1601 Laurel Ave W, Minneapolis, MN 55403","restriction":"500 feet","latitude":44.973736,"longitude":-93.286318,"icon":"child","show":"n"},
{"name":"Kinderberry Hill Child Development Centers ","type":"childcare","address":"50 South 6th St, Minneapolis, MN 55402","restriction":"500 feet","latitude":44.978397,"longitude":-93.271792,"icon":"child","show":"n"},
{"name":"Sprout","type":"childcare","address":"401 N 3rd St #650, Minneapolis, MN 55401","restriction":"500 feet","latitude":44.98285791,"longitude":-93.27465541,"icon":"child","show":"n"},
{"name":"New Horizon Academy","type":"childcare","address":"1310 Hennepin Ave, Minneapolis, MN 55403","restriction":"500 feet","latitude":44.97402404,"longitude":-93.28234654,"icon":"child","show":"n"},
{"name":"Noah's Ark Child Development Centers Inc  ","type":"childcare","address":"1021 Hennepin Ave, Minneapolis, MN 55403","restriction":"500 feet","latitude":44.97557364,"longitude":-93.27826096,"icon":"child","show":"n"},
{"name":"Cradle Club","type":"childcare","address":"100 N 6th St #152C, Minneapolis, MN 55403","restriction":"500 feet","latitude":44.97973817,"longitude":-93.27490382,"icon":"child","show":"n"},
{"name":"Assure Child Care","type":"childcare","address":"80 S 8th St #700, Minneapolis, MN 55402","restriction":"500 feet","latitude":44.97570588,"longitude":-93.27239328,"icon":"child","show":"n"},
{"name":"New Horizon Academy  ","type":"childcare","address":"111 S Marquette Ave, Minneapolis, MN 55401","restriction":"500 feet","latitude":44.98222,"longitude":-93.26503,"icon":"child","show":"n"},
{"name":"Bernie's Montessori School and Child Care ","type":"childcare","address":"115 2nd Ave S, Minneapolis, MN 55401","restriction":"500 feet","latitude":44.98188,"longitude":-93.26377,"icon":"child","show":"n"},
{"name":"Parents in Community Action","type":"childcare","address":"614 S 3rd St, Minneapolis, MN 55415","restriction":"500 feet","latitude":44.977411,"longitude":-93.26017,"icon":"child","show":"n"},
{"name":"Metro Kids Day Care  ","type":"childcare","address":"810 S 7th St, Minneapolis, MN 55415","restriction":"500 feet","latitude":44.97228,"longitude":-93.26039,"icon":"child","show":"n"},
{"name":"Bright Horizons","type":"childcare","address":"34 S 10th St, Minneapolis, MN 55403","restriction":"500 feet","latitude":44.97482,"longitude":-93.27637,"icon":"child","show":"n"},
{"name":"Minneapolis Public School ","type":"school","address":"510 Park Ave, Minneapolis, MN 55415","restriction":"500 feet","latitude":44.97462563,"longitude":-93.26128492,"icon":"school","show":"n"},
{"name":"Emerson Spanish Immersion","type":"school","address":"1421 Spruce Pl, Minneapolis, MN 55403","restriction":"500 feet","latitude":44.96826,"longitude":-93.28008,"icon":"school","show":"n"},
{"name":"The FAIR School, Downtown Campus","type":"school","address":"10 S 10th St, Minneapolis, MN 55403","restriction":"500 feet","latitude":44.97526,"longitude":-93.27688,"icon":"school","show":"n"},
{"name":"Minneapolis Central Library","type":"library","address":"300 Nicollet Mall, Minneapolis, MN 55401","restriction":"500 feet","latitude":44.98056,"longitude":-93.2701,"icon":"library","show":"n"},
{"name":"Smitten Kitten","type":"sexshop","address":"3010 Lyndale Ave S, Minneapolis, MN 55408","restriction":"one per block face","latitude":44.947894,"longitude":-93.288485,"icon":"redlight","show":"y"},
{"name":"Venus Unveiled","type":"sexshop","address":"711 W Lake St STE 104, Minneapolis, MN 55408","restriction":"one per block face","latitude":44.948079,"longitude":-93.288821,"icon":"redlight","show":"y"},
{"name":"B J's Liquor Lounge","type":"stripclub","address":"29 W Broadway Ave, Minneapolis, MN 55411","restriction":"one per block face","latitude":44.999117,"longitude":-93.278657,"icon":"redlight","show":"y"}]}