{"groups":[{"name":"Concerned Citizens of Shakopee","city":"Shakopee","state":"MN","members":2643,"privacy":"Public","created":"2015-01-01T06:00:00.000Z","latitude":44.79808044,"longitude":-93.5266571,"notes":"from description: group was create for discussion of \"social or political\" issues in Shakopee. \"Policy debate on business matters is HIGHLY encouraged\""},{"name":"Shakopee CARES","city":"Shakopee","state":"MN","members":1355,"privacy":"Public","created":"2016-01-01T06:00:00.000Z","latitude":44.79808044,"longitude":-93.5266571,"notes":"less political, more community bulletin board"},{"name":"Columbia Heights Rant & Rave","city":"Columbia Heights","state":"MN","members":1820,"privacy":"Closed","created":"2017-04-16T05:00:00.000Z","latitude":45.0409584,"longitude":-93.25662231,"notes":"bars posts about state or federal politics; heavily influential in local politics/election; lots of general interest posts as well"},{"name":"Fridley Political Exchange","city":"Fridley","state":"MN","members":184,"privacy":"Public","created":"2016-11-01T05:00:00.000Z","latitude":45.08509827,"longitude":-93.26325989,"notes":"fairly new; posts aren't daily, but very active in promoting civic center campus and opposing petition drive; modeled on New Brighton political exchange"},{"name":"Real Life in Chaska","city":"Chaska","state":"MN","members":3089,"privacy":"Closed","created":"unavailable","latitude":44.78718948,"longitude":-93.6018219,"notes":""},{"name":"West St. Paul Neighbors","city":"West St. Paul","state":"MN","members":7725,"privacy":"Public","created":"2011-08-01T05:00:00.000Z","latitude":44.89715958,"longitude":-93.08540344,"notes":""},{"name":"We Love Lake Elmo","city":"Lake Elmo","state":"MN","members":607,"privacy":"Public","created":"2017-03-15T05:00:00.000Z","latitude":45.00408936,"longitude":-92.87978363,"notes":""},{"name":"Neighborly New Brighton","city":"New Brighton","state":"MN","members":1560,"privacy":"Public","created":"unavailable","latitude":45.06324005,"longitude":-93.19312286,"notes":""},{"name":"New Brighton Political Exchange","city":"New Brighton","state":"MN","members":181,"privacy":"Public","created":"2015-08-01T05:00:00.000Z","latitude":45.06324005,"longitude":-93.19312286,"notes":""},{"name":"Inver Grove Heights Neighbors - Chat","city":"Inver Grove Heights","state":"MN","members":4208,"privacy":"Closed","created":"unavailable","latitude":44.83242035,"longitude":-93.06269836,"notes":""},{"name":"What's Going on In Saint Francis","city":"St. Francis","state":"MN","members":1030,"privacy":"Closed","created":"2017-03-14T05:00:00.000Z","latitude":45.39237976,"longitude":-93.36888885,"notes":"mobilized residents after big water bill hikes last year; influenced outcome of election (according to a group member)"}]}