Route,Dir,Site_id,Name,Group_ID,Latitude,Longitude,XCoordinate,YCoordinate,City,Trips,Trips_Obs,Schedule,Ons,Offs
71,N,2605,Cesar Chavez St & State St,STCO,44.929875,-93.078124,493836.12,4975163.42,SAINT PAUL,23,23,Weekday,33,21
71,N,2606,Cesar Chavez St  & Winifred St,,44.931300,-93.080297,493664.82,4975321.92,SAINT PAUL,23,23,Weekday,2,4
71,N,2607,Robert St S & Isabel St,,44.933009,-93.080759,493628.55,4975511.81,SAINT PAUL,23,23,Weekday,18,4
71,N,2608,Robert St S & Colorado St,,44.934694,-93.080792,493626.11,4975698.96,SAINT PAUL,23,23,Weekday,4,1
71,N,2609,Robert St S & Plato Blvd E,,44.938296,-93.082389,493500.53,4976099.16,SAINT PAUL,23,23,Weekday,5,2
71,N,2610,Robert St S & Fillmore Ave,FILL,44.941265,-93.084877,493304.55,4976429.26,SAINT PAUL,11,11,Weekday,8,6
71,S,2794,Robert St S & Fillmore Ave,FILL,44.941369,-93.085133,493284.43,4976440.84,SAINT PAUL,10,10,Weekday,1,6
71,S,2795,Robert St S & Plato Blvd,,44.938515,-93.082756,493471.58,4976123.55,SAINT PAUL,10,10,Weekday,0,2
71,S,2797,Robert St S & Colorado St,,44.934875,-93.080939,493614.53,4975719.08,SAINT PAUL,23,23,Weekday,1,4
71,S,2798,Robert St S & Isabel St,,44.933190,-93.080910,493616.66,4975531.93,SAINT PAUL,23,23,Weekday,4,12
71,N,5090,McMenemy St & #1770,,44.995005,-93.086268,493201.22,4982399.09,MAPLEWOOD,33,33,Weekday,0,0
71,N,5091,McMenemy St & #1860,,44.997109,-93.086294,493199.39,4982632.87,MAPLEWOOD,33,33,Weekday,0,1
71,N,5093,McMenemy St & Roselawn Ave,,44.998950,-93.086316,493197.87,4982837.39,MAPLEWOOD,24,24,Weekday,0,2
71,N,5094,McMenemy St & Skillman Ave,,45.002531,-93.086379,493193.29,4983235.15,MAPLEWOOD,24,24,Weekday,1,4
71,N,5095,Skillman Ave & Arkwright St,,45.002615,-93.084024,493378.92,4983244.30,MAPLEWOOD,24,24,Weekday,0,3
71,S,5095,Skillman Ave & Arkwright St,,45.002615,-93.084024,493378.92,4983244.30,MAPLEWOOD,23,23,Weekday,2,0
71,N,5097,Skillman Ave & Desoto St,,45.002636,-93.081507,493577.34,4983246.43,MAPLEWOOD,24,24,Weekday,2,9
71,S,5097,Skillman Ave & Desoto St,,45.002636,-93.081507,493577.34,4983246.43,MAPLEWOOD,23,23,Weekday,10,1
71,N,5098,Skillman Ave & Bradley St,,45.002706,-93.078966,493777.60,4983254.05,MAPLEWOOD,24,24,Weekday,2,11
71,S,5098,Skillman Ave & Bradley St,,45.002706,-93.078966,493777.60,4983254.05,MAPLEWOOD,23,23,Weekday,15,1
71,N,5099,Skillman Ave & Edgerton St,,45.002669,-93.076421,493978.16,4983249.78,MAPLEWOOD,24,24,Weekday,0,3
71,S,5099,Skillman Ave & Edgerton St,,45.002669,-93.076421,493978.16,4983249.78,MAPLEWOOD,23,23,Weekday,3,0
71,N,5100,Edgerton St & Co Rd B,,45.006264,-93.076263,493990.96,4983649.07,MAPLEWOOD,14,14,Weekday,1,0
71,N,5101,Edgerton St & Sunrise Dr,,45.007551,-93.076273,493990.35,4983792.02,MAPLEWOOD,14,14,Weekday,0,2
71,S,5103,Edgerton St & Co Rd B,,45.006445,-93.076410,493979.38,4983669.19,MAPLEWOOD,14,14,Weekday,4,0
71,S,5104,Edgerton St & Skillman Ave,,45.002818,-93.076371,493982.12,4983266.24,MAPLEWOOD,14,14,Weekday,0,0
71,N,5107,Skillman Ave & Bradley St,,45.002813,-93.078715,493797.41,4983265.94,MAPLEWOOD,19,19,Weekday,1,8
71,S,5107,Skillman Ave & Bradley St,,45.002813,-93.078715,493797.41,4983265.94,MAPLEWOOD,14,14,Weekday,11,1
71,N,5108,Skillman Ave & Desoto St,,45.002737,-93.081251,493597.46,4983257.71,MAPLEWOOD,19,19,Weekday,1,6
71,S,5108,Skillman Ave & Desoto St,,45.002737,-93.081251,493597.46,4983257.71,MAPLEWOOD,14,14,Weekday,7,1
71,N,5110,Skillman Ave & Arkwright St,,45.002722,-93.083773,493398.73,4983256.18,MAPLEWOOD,19,19,Weekday,1,2
71,S,5110,Skillman Ave & Arkwright St,,45.002722,-93.083773,493398.73,4983256.18,MAPLEWOOD,14,14,Weekday,1,0
71,S,5112,McMenemy St & Roselawn Ave,,44.999131,-93.086463,493186.28,4982857.51,MAPLEWOOD,32,32,Weekday,1,0
71,S,5114,McMenemy St & #1860,,44.996835,-93.086437,493188.11,4982602.39,MAPLEWOOD,33,33,Weekday,0,0
71,S,5115,McMenemy St & #1770,,44.995073,-93.086415,493189.64,4982406.71,MAPLEWOOD,33,33,Weekday,1,0
71,S,5116,McMenemy St & Larpenteur Ave,WELA,44.991918,-93.086375,493192.38,4982056.18,MAPLEWOOD,33,33,Weekday,20,6
71,N,9676,Inver Hills College & Shelter,INCO,44.829883,-93.054904,495660.96,4964054.36,INVER GROVE HEIGHTS,9,9,Weekday,13,1
71,S,9676,Inver Hills College & Shelter,INCO,44.829883,-93.054904,495660.96,4964054.36,INVER GROVE HEIGHTS,11,11,Weekday,0,20
71,S,9677,College Trail & Cahill Ave,,44.827788,-93.040821,496774.09,4963820.88,INVER GROVE HEIGHTS,7,7,Weekday,0,0
71,N,9680,80th St E & Cleadis Ave E,,44.833533,-93.034046,497309.93,4964458.83,INVER GROVE HEIGHTS,13,13,Weekday,1,0
71,N,9683,80th St E & Cooper Ave E,,44.833531,-93.029889,497638.51,4964458.52,INVER GROVE HEIGHTS,13,13,Weekday,1,0
71,N,9685,80th St E & Corey Path,,44.833546,-93.026468,497908.86,4964460.05,INVER GROVE HEIGHTS,13,13,Weekday,2,0
71,N,9686,Dawn Ave & 80th St E,,44.833733,-93.024965,498027.74,4964480.77,INVER GROVE HEIGHTS,13,13,Weekday,2,0
71,N,9687,Dawn Ave & 79th St E,,44.835275,-93.024988,498025.91,4964652.07,INVER GROVE HEIGHTS,13,13,Weekday,,
71,N,9688,Dawn Ave & Davidson Court,,44.836224,-93.024434,498069.80,4964757.53,INVER GROVE HEIGHTS,13,13,Weekday,,
71,N,9689,Dawn Ave & 78th St E,,44.837091,-93.024303,498080.16,4964853.85,INVER GROVE HEIGHTS,13,13,Weekday,3,0
71,N,9690,Dawn Ave & 77th St E,,44.837999,-93.024334,498077.72,4964954.74,INVER GROVE HEIGHTS,13,13,Weekday,0,0
71,N,9691,Dawn Ave & 76th Way E,,44.839037,-93.024346,498076.81,4965069.95,INVER GROVE HEIGHTS,13,13,Weekday,0,0
71,N,9692,Dawn Ave & 75th St E,75DA,44.840705,-93.024327,498078.33,4965255.27,INVER GROVE HEIGHTS,13,13,Weekday,4,0
71,N,9695,Dawn Ave & 72nd St E,,44.844384,-93.024402,498072.54,4965664.01,INVER GROVE HEIGHTS,13,13,Weekday,1,0
71,N,9696,Dawn Ave & 71st St E,,44.846099,-93.024391,498073.46,4965854.51,INVER GROVE HEIGHTS,13,13,Weekday,3,0
71,N,9698,Dawn Ave & 70th St E,,44.847919,-93.024423,498071.02,4966056.59,INVER GROVE HEIGHTS,13,13,Weekday,1,0
71,N,9699,Dawn Ave & 69th St E,,44.849683,-93.024462,498067.97,4966252.58,INVER GROVE HEIGHTS,13,13,Weekday,1,0
71,N,9700,Dawn Way & 67th St E,,44.852597,-93.024954,498029.26,4966576.28,INVER GROVE HEIGHTS,13,13,Weekday,1,0
71,N,9701,Dawn Way & 66th St E,,44.853302,-93.025170,498012.19,4966654.61,INVER GROVE HEIGHTS,13,13,Weekday,2,0
71,N,9702,Dawn Way & 65th St E,,44.855116,-93.025178,498011.58,4966856.08,INVER GROVE HEIGHTS,13,13,Weekday,1,0
71,N,9703,Dawn Way & 64th St E,,44.856905,-93.025183,498011.28,4967054.81,INVER GROVE HEIGHTS,13,13,Weekday,1,0
71,N,9704,Dawn Way & 63rd St E,,44.858702,-93.025157,498013.41,4967254.46,INVER GROVE HEIGHTS,13,13,Weekday,,
71,N,9705,Dawn Way & 61st St E,,44.860230,-93.025478,497988.11,4967424.23,INVER GROVE HEIGHTS,13,13,Weekday,0,0
71,N,9706,Dawn Ave & Concord Blvd,,44.862601,-93.022685,498208.79,4967687.58,INVER GROVE HEIGHTS,13,13,Weekday,0,0
71,N,9707,Concord Blvd & Linden St,,44.864025,-93.023153,498171.91,4967845.77,INVER GROVE HEIGHTS,13,13,Weekday,1,0
71,N,9708,Concord St & Poplar St E,,44.866146,-93.024195,498089.61,4968081.38,SOUTH SAINT PAUL,13,13,Weekday,0,0
71,N,9709,Concord St S & #1414,,44.868741,-93.026554,497903.38,4968369.72,SOUTH SAINT PAUL,13,13,Weekday,2,0
71,N,9710,Concord St S & Richmond St E,,44.872955,-93.028867,497720.80,4968837.90,SOUTH SAINT PAUL,13,13,Weekday,4,0
71,N,9713,Concord St S & Villaume Ave,,44.880006,-93.031553,497508.97,4969621.23,SOUTH SAINT PAUL,13,13,Weekday,0,0
71,N,9714,Concord Exchange & Concord St,CXCO,44.881984,-93.032291,497450.75,4969841.00,SOUTH SAINT PAUL,19,19,Weekday,7,0
71,S,9714,Concord Exchange & Concord St,CXCO,44.881984,-93.032291,497450.75,4969841.00,SOUTH SAINT PAUL,7,7,Weekday,0,7
71,N,9715,Concord Exchange & Armour Ave,,44.884854,-93.032424,497440.39,4970159.82,SOUTH SAINT PAUL,19,19,Weekday,35,1
71,N,9716,Concord Exchange & Camber Ave,,44.887162,-93.033193,497379.73,4970416.15,SOUTH SAINT PAUL,18,18,Weekday,5,1
71,N,9718,Concord Exchange & Veterens Memorial Dr,,44.891209,-93.034269,497295.00,4970865.74,SOUTH SAINT PAUL,19,19,Weekday,1,0
71,N,9719,Concord Exchange & Grand Ave,,44.892715,-93.034860,497248.36,4971033.07,SOUTH SAINT PAUL,19,19,Weekday,23,1
71,N,9720,Concord St N & Wentworth Ave,,44.898824,-93.038744,496942.04,4971711.86,SOUTH SAINT PAUL,23,23,Weekday,2,0
71,N,9721,Concord St N & #522,,44.900621,-93.040656,496791.16,4971911.51,SOUTH SAINT PAUL,23,23,Weekday,1,0
71,N,9722,Concord St N & Central Ave,,44.904894,-93.045864,496380.29,4972386.39,SOUTH SAINT PAUL,23,23,Weekday,0,0
71,N,9723,Concord St N & Bryant Ave N,,44.905747,-93.046675,496316.28,4972481.18,SOUTH SAINT PAUL,23,23,Weekday,9,1
71,N,9724,Concord St N & #1180-Marathon,,44.908972,-93.050118,496044.70,4972839.62,SOUTH SAINT PAUL,23,23,Weekday,11,1
71,N,9726,Concord St N & Butler Ave,,44.914350,-93.054641,495688.09,4973437.34,SOUTH SAINT PAUL,23,23,Weekday,1,0
71,N,9727,Concord St N & Stanley Ave,,44.916182,-93.056388,495550.32,4973640.94,SOUTH SAINT PAUL,23,23,Weekday,0,0
71,N,9728,Concord St N & Bircher Ave,,44.918234,-93.058294,495400.05,4973868.94,SOUTH SAINT PAUL,23,23,Weekday,4,1
71,N,9729,Concord St & Annapolis St,,44.919871,-93.060053,495261.37,4974050.90,SAINT PAUL,23,23,Weekday,0,0
71,N,9731,Concord St & Belvidere St,BEID,44.922095,-93.062291,495084.89,4974298.09,SAINT PAUL,23,23,Weekday,8,2
71,N,9732,Concord St & Curtice St,,44.922989,-93.063030,495026.67,4974397.46,SAINT PAUL,23,23,Weekday,3,0
71,N,9733,Concord St & Page St,,44.924832,-93.064777,494888.90,4974602.29,SAINT PAUL,23,23,Weekday,1,0
71,N,9736,Cesar Chavez & Bancroft Ave,,44.928452,-93.073066,494235.10,4975004.93,SAINT PAUL,23,23,Weekday,8,1
71,N,9738,Cesar Chavez & Ada St,,44.929514,-93.076668,493951.03,4975123.19,SAINT PAUL,18,18,Weekday,1,4
71,N,9739,Anita St & Robie St,,44.929584,-93.074462,494125.07,4975130.81,SAINT PAUL,5,5,Weekday,0,0
71,S,9739,Anita St & Robie St,,44.929584,-93.074462,494125.07,4975130.81,SAINT PAUL,5,5,Weekday,0,1
71,N,9741,Anita St & Congress St,,44.931217,-93.073360,494212.24,4975312.17,SAINT PAUL,5,5,Weekday,0,0
71,S,9741,Anita St & Congress St,,44.931217,-93.073360,494212.24,4975312.17,SAINT PAUL,5,5,Weekday,0,1
71,N,9744,Ada St & Cesar Chavez,,44.929604,-93.076826,493938.53,4975133.25,SAINT PAUL,5,5,Weekday,0,0
71,S,9744,Ada St & Cesar Chavez,,44.929604,-93.076826,493938.53,4975133.25,SAINT PAUL,5,5,Weekday,0,0
71,N,9745,Plato Blvd & Eva St,,44.938906,-93.080431,493655.07,4976166.83,SAINT PAUL,12,12,Weekday,0,0
71,N,9746,Plato Blvd & State St,,44.939210,-93.078133,493836.42,4976200.36,SAINT PAUL,12,12,Weekday,2,1
71,N,9747,Plato Blvd & Chester St,CHPL,44.940873,-93.073055,494237.24,4976384.76,SAINT PAUL,23,23,Weekday,11,2
71,N,9748,Plato Blvd & Bayfield (Fillmore),,44.942322,-93.071933,494325.93,4976545.69,SAINT PAUL,23,23,Weekday,0,0
71,N,9749,Fillmore Ave E & Ridder Circle,,44.943581,-93.073572,494196.70,4976685.60,SAINT PAUL,23,23,Weekday,3,1
71,N,9750,Fillmore Ave E & Lafayette Rd E,,44.944037,-93.076818,493940.67,4976736.50,SAINT PAUL,23,23,Weekday,2,0
71,N,9751,Fillmore Ave E & State St,,44.943412,-93.080090,493682.50,4976667.31,SAINT PAUL,23,23,Weekday,2,0
71,N,9752,River Park Plaza & Comcast Entrance,,44.943049,-93.084111,493365.20,4976627.38,SAINT PAUL,23,23,Weekday,5,1
71,N,9753,Fillmore Ave E & Robert St,FILL,44.941411,-93.084936,493299.97,4976445.42,SAINT PAUL,23,23,Weekday,15,2
71,S,10032,78th St E & Charles Way,,44.837231,-93.036420,497122.48,4964869.70,INVER GROVE HEIGHTS,5,5,Weekday,,
71,S,10034,78th St E & Rolling Meadows Apts,,44.837217,-93.037812,497012.45,4964868.17,INVER GROVE HEIGHTS,5,5,Weekday,0,0
71,S,10035,78th St E & Chandler / Cahill,,44.836535,-93.040229,496821.34,4964792.58,INVER GROVE HEIGHTS,5,5,Weekday,0,0
71,S,10036,78th St E & Cahill Ave,,44.836378,-93.042173,496667.72,4964775.21,INVER GROVE HEIGHTS,5,5,Weekday,0,0
71,S,10037,Fillmore Ave E & Robert St,FILL,44.941361,-93.084769,493313.08,4976439.93,SAINT PAUL,25,25,Weekday,4,18
71,S,10039,Fillmore Ave E & State St,,44.943261,-93.080287,493666.95,4976650.55,SAINT PAUL,25,25,Weekday,0,4
71,S,10040,Fillmore Ave E & Lafayette Rd W,,44.943616,-93.078379,493817.53,4976689.87,SAINT PAUL,25,25,Weekday,0,1
71,S,10041,Fillmore Ave E & Lafayette Rd E,,44.943825,-93.077143,493915.06,4976713.03,SAINT PAUL,25,25,Weekday,0,0
71,S,10042,Fillmore Ave E & Ridder Circle,,44.943484,-93.073947,494167.13,4976674.93,SAINT PAUL,25,25,Weekday,0,5
71,S,10044,Plato Blvd & Chester St,CHPL,44.941021,-93.073295,494218.34,4976401.22,SAINT PAUL,13,13,Weekday,1,12
71,S,10045,Plato Blvd & State St,,44.939498,-93.077998,493847.09,4976232.36,SAINT PAUL,13,13,Weekday,0,2
71,S,10046,Plato Blvd & Eva St,,44.939186,-93.080285,493666.65,4976197.92,SAINT PAUL,13,13,Weekday,0,0
71,S,10048,Cesar Chavez & Ada St,,44.929481,-93.076961,493927.86,4975119.53,SAINT PAUL,23,23,Weekday,19,16
71,S,10050,Cesar Chavez & Bancroft Ave,,44.928429,-93.073356,494212.24,4975002.49,SAINT PAUL,23,23,Weekday,2,6
71,S,10052,Concord St & Kansas St,,44.926024,-93.067108,494705.11,4974734.87,SAINT PAUL,23,23,Weekday,0,8
71,S,10053,Concord St & Page St,,44.924903,-93.065249,494851.71,4974610.21,SAINT PAUL,23,23,Weekday,0,1
71,S,10054,Concord St & Curtice St,,44.923123,-93.063300,495005.33,4974412.40,SAINT PAUL,23,23,Weekday,0,1
71,S,10055,Concord St & Belvidere St,BEID,44.922216,-93.062561,495063.55,4974311.51,SAINT PAUL,23,23,Weekday,3,6
71,S,10057,Concord St & Annapolis St,,44.919610,-93.059840,495278.13,4974021.95,SAINT PAUL,23,23,Weekday,0,0
71,S,10058,Concord St N & Bircher Ave,,44.918228,-93.058572,495378.11,4973868.33,SOUTH SAINT PAUL,23,23,Weekday,1,3
71,S,10059,Concord St N & Stanley Ave,,44.915996,-93.056503,495541.17,4973620.22,SOUTH SAINT PAUL,23,23,Weekday,0,1
71,S,10060,Concord St N & Butler Ave,,44.914188,-93.054768,495678.03,4973419.35,SOUTH SAINT PAUL,23,23,Weekday,0,0
71,S,10061,Concord St N & #1180-Marathon,,44.908711,-93.050129,496043.79,4972810.67,SOUTH SAINT PAUL,23,23,Weekday,0,15
71,S,10062,Concord St N & Bryant Ave N,,44.905799,-93.047015,496289.46,4972486.97,SOUTH SAINT PAUL,23,23,Weekday,1,6
71,S,10063,Concord St N & Central Ave,,44.904874,-93.046134,496358.95,4972384.25,SOUTH SAINT PAUL,23,23,Weekday,0,1
71,S,10064,Concord St & #522,,44.900527,-93.040868,496774.40,4971901.14,SOUTH SAINT PAUL,23,23,Weekday,1,2
71,S,10065,Concord St N & Wentworth Ave,,44.898585,-93.038999,496921.92,4971685.34,SOUTH SAINT PAUL,23,23,Weekday,0,1
71,S,10066,Concord Exchange & Grand Ave,,44.892621,-93.034965,497240.13,4971022.71,SOUTH SAINT PAUL,19,19,Weekday,1,23
71,S,10067,Concord Exchange & Veterans Memorial Dr,,44.891370,-93.034458,497280.06,4970883.72,SOUTH SAINT PAUL,19,19,Weekday,0,1
71,S,10068,Concord Exchange & #144,,44.889151,-93.033886,497325.17,4970637.13,SOUTH SAINT PAUL,19,19,Weekday,0,1
71,S,10069,Concord Exchange & Camber Ave,,44.887304,-93.033410,497362.66,4970432.00,SOUTH SAINT PAUL,12,12,Weekday,0,1
71,S,10070,Concord Exchange & Armour Ave,,44.884766,-93.032555,497430.02,4970150.06,SOUTH SAINT PAUL,12,12,Weekday,1,25
71,S,10071,Concord Exchange & Concord St,CXCO,44.881641,-93.032087,497466.90,4969802.90,SOUTH SAINT PAUL,12,12,Weekday,0,0
71,S,10072,Concord St & Armour Ave,,44.884799,-93.032374,497444.35,4970153.72,SOUTH SAINT PAUL,7,7,Weekday,0,8
71,S,10074,Concord St S & Dale Place,,44.873081,-93.029103,497702.21,4968851.92,SOUTH SAINT PAUL,16,16,Weekday,0,6
71,S,10076,Concord St S & Poplar St E,,44.866066,-93.024307,498080.77,4968072.54,SOUTH SAINT PAUL,16,16,Weekday,0,0
71,S,10078,Concord Blvd & Linden St,,44.864160,-93.023365,498155.14,4967860.71,SOUTH SAINT PAUL,16,16,Weekday,0,1
71,S,10079,Concord Blvd & Dawn Way E,,44.862749,-93.022701,498207.57,4967704.04,INVER GROVE HEIGHTS,16,16,Weekday,0,1
71,S,10080,Dawn Way & 61st St E,,44.860395,-93.025663,497973.48,4967442.52,SOUTH SAINT PAUL,16,16,Weekday,0,0
71,S,10081,Dawn Way & 63rd St E,,44.858872,-93.025323,498000.30,4967273.36,INVER GROVE HEIGHTS,16,16,Weekday,,
71,S,10082,Dawn Way & 64th St E,,44.857097,-93.025330,497999.70,4967076.15,INVER GROVE HEIGHTS,16,16,Weekday,0,1
71,S,10083,Dawn Way & 65th St E,,44.855297,-93.025325,498000.00,4966876.20,INVER GROVE HEIGHTS,16,16,Weekday,0,1
71,S,10084,Dawn Way & 66th St E,,44.853480,-93.025332,497999.39,4966674.42,INVER GROVE HEIGHTS,16,16,Weekday,0,1
71,S,10085,Dawn Way & 67th St E,,44.852715,-93.025166,498012.50,4966589.38,INVER GROVE HEIGHTS,16,16,Weekday,0,1
71,S,10086,Dawn Ave & 69th St E,,44.849880,-93.024613,498056.08,4966274.52,INVER GROVE HEIGHTS,16,16,Weekday,0,1
71,S,10087,Dawn Ave & 70th St E,,44.848190,-93.024585,498058.22,4966086.77,INVER GROVE HEIGHTS,16,16,Weekday,0,2
71,S,10088,Dawn Ave E & 71st St E,,44.846280,-93.024542,498061.57,4965874.63,INVER GROVE HEIGHTS,16,16,Weekday,0,2
71,S,10090,Dawn Ave E & 72nd St E,,44.844480,-93.024553,498060.66,4965674.68,INVER GROVE HEIGHTS,16,16,Weekday,0,0
71,S,10095,Dawn Ave & 76th Way E,,44.839218,-93.024481,498066.14,4965090.07,INVER GROVE HEIGHTS,16,16,Weekday,0,0
71,S,10096,Dawn Ave & 77th St E,,44.838095,-93.024488,498065.53,4964965.41,INVER GROVE HEIGHTS,16,16,Weekday,0,1
71,S,10097,Dawn Ave & 78th St E,,44.837281,-93.024446,498068.88,4964874.88,INVER GROVE HEIGHTS,16,16,Weekday,0,2
71,S,10098,Dawn Ave & Corey Path,,44.836076,-93.024730,498046.33,4964741.07,INVER GROVE HEIGHTS,16,16,Weekday,,
71,S,10099,Dawn Ave & 79th St E,,44.835404,-93.025112,498016.15,4964666.40,INVER GROVE HEIGHTS,16,16,Weekday,0,0
71,S,10100,Dawn Ave & 80th St E,,44.833686,-93.025111,498016.15,4964475.59,INVER GROVE HEIGHTS,16,16,Weekday,0,4
71,S,10101,80th St E & Corey Path,,44.833650,-93.026229,497927.76,4964471.63,INVER GROVE HEIGHTS,16,16,Weekday,0,1
71,S,10103,80th St E & Cooper Ave E,,44.833635,-93.029619,497659.84,4964470.10,INVER GROVE HEIGHTS,16,16,Weekday,0,1
71,S,10106,80th St E & Clayton Ave,,44.833640,-93.033791,497330.05,4964470.71,INVER GROVE HEIGHTS,16,16,Weekday,0,0
71,S,10108,80th St E & Cahill Plaza,,44.834265,-93.041832,496694.54,4964540.51,INVER GROVE HEIGHTS,11,11,Weekday,0,3
71,N,10116,College Trail & Blaine Ave,,44.827194,-93.050344,496021.23,4963755.35,INVER GROVE HEIGHTS,6,6,Weekday,0,0
71,N,11903,Jackson St & 14th St,14JA,44.955244,-93.096097,492421.23,4977983.13,SAINT PAUL,52,52,Weekday,49,52
71,S,11904,Jackson St & 14th St,14JA,44.955299,-93.096553,492385.27,4977989.23,SAINT PAUL,56,56,Weekday,53,27
71,N,11940,Kellogg Blvd & Minnesota St,KEMI,44.945305,-93.090416,492868.07,4976878.54,SAINT PAUL,19,19,Weekday,11,1
71,S,11940,Kellogg Blvd & Minnesota St,KEMI,44.945305,-93.090416,492868.07,4976878.54,SAINT PAUL,21,21,Weekday,1,14
71,N,18034,Westminster St & Hyacinth Av E,,44.979488,-93.086148,493208.84,4980675.44,SAINT PAUL,33,33,Weekday,1,4
71,N,18035,Westminster St & #1362,,44.981464,-93.086139,493209.75,4980894.89,SAINT PAUL,33,33,Weekday,1,20
71,N,18036,Westminster St & Cottage St E,,44.982696,-93.086156,493208.53,4981031.75,SAINT PAUL,33,33,Weekday,0,9
71,N,18038,Westminster St & Arlington Av,,44.984468,-93.086167,493207.92,4981228.65,SAINT PAUL,33,33,Weekday,2,20
71,N,18102,LOrient St & University Av,,44.957983,-93.092758,492684.89,4978287.02,SAINT PAUL,52,52,Weekday,1,8
71,N,18104,LOrient St & Arch St,,44.959910,-93.091227,492805.89,4978500.99,SAINT PAUL,52,52,Weekday,5,30
71,N,18106,LOrient St & Pennsylvania Av,,44.961556,-93.091524,492782.73,4978683.87,SAINT PAUL,52,52,Weekday,1,6
71,N,18111,Arkwright St & Case Av,,44.970332,-93.083598,493408.79,4979658.01,SAINT PAUL,52,52,Weekday,3,36
71,N,18113,Arkwright St & Lawson Av,,44.971846,-93.083608,493408.18,4979826.26,SAINT PAUL,52,52,Weekday,5,46
71,N,18115,Arkwright St & Magnolia Av,,44.973646,-93.083603,493408.79,4980026.21,SAINT PAUL,52,52,Weekday,1,31
71,N,18117,Arkwright St & Geranium Av,,44.975446,-93.083606,493408.79,4980226.16,SAINT PAUL,52,52,Weekday,2,24
71,N,18119,Arkwright St & Maryland Av,AWMY,44.977260,-93.083597,493409.70,4980427.64,SAINT PAUL,52,52,Weekday,4,56
71,S,18122,Arkwright St & Geranium Av,,44.975632,-93.083753,493397.21,4980246.89,SAINT PAUL,55,55,Weekday,33,2
71,S,18124,Arkwright St & Magnolia Av,,44.973827,-93.083750,493397.21,4980046.33,SAINT PAUL,55,55,Weekday,35,1
71,S,18126,Arkwright St & Lawson Av,,44.972019,-93.083755,493396.60,4979845.47,SAINT PAUL,55,55,Weekday,25,3
71,S,18128,Arkwright St & Case Av,,44.970222,-93.083749,493396.90,4979645.82,SAINT PAUL,55,55,Weekday,58,6
71,S,18133,LOrient St & Pennsylvania Av,,44.961545,-93.091705,492768.40,4978682.65,SAINT PAUL,55,55,Weekday,6,2
71,S,18134,LOrient St & Arch St,,44.960020,-93.091405,492791.87,4978513.18,SAINT PAUL,55,55,Weekday,32,2
71,S,18135,LOrient St & Mt Airy St (Winter),,44.958900,-93.091349,492796.14,4978388.82,SAINT PAUL,55,55,Weekday,10,1
71,S,18136,LOrient St & University Av,,44.957963,-93.092898,492673.91,4978284.89,SAINT PAUL,55,55,Weekday,2,3
71,N,18189,Edgerton St & Cottage Av,,44.982810,-93.076054,494004.98,4981043.64,SAINT PAUL,19,19,Weekday,0,2
71,N,18191,Edgerton St & Arlington Av,,44.984558,-93.076068,494004.06,4981237.80,SAINT PAUL,19,19,Weekday,0,5
71,N,18197,Westminster St & #1511,,44.986625,-93.086174,493207.62,4981468.22,SAINT PAUL,33,33,Weekday,1,13
71,N,18198,Westminster St & Hoyt Av,,44.988082,-93.086184,493207.01,4981630.07,SAINT PAUL,33,33,Weekday,0,13
71,N,18199,Westminster St & Wheelock Pkwy,,44.990540,-93.086211,493205.18,4981903.18,SAINT PAUL,33,33,Weekday,1,12
71,N,18200,Westminster St & Larpenteur Av,WELA,44.991737,-93.086228,493203.96,4982036.07,SAINT PAUL,33,33,Weekday,5,14
71,S,18201,Westminster St & Wheelock Pkwy,,44.990721,-93.086358,493193.60,4981923.29,SAINT PAUL,33,33,Weekday,12,1
71,S,18202,Westminster St & Hoyt Av,,44.988263,-93.086331,493195.43,4981650.19,SAINT PAUL,33,33,Weekday,15,1
71,S,18203,Westminster St & #1511,,44.986652,-93.086325,493195.73,4981471.27,SAINT PAUL,33,33,Weekday,10,0
71,S,18211,Edgerton St & Cottage Av,,44.982920,-93.076201,493993.40,4981055.83,SAINT PAUL,22,22,Weekday,3,0
71,S,18212,Edgerton St & Brainerd Av,,44.981123,-93.076184,493994.62,4980856.18,SAINT PAUL,22,22,Weekday,6,1
71,N,18219,Roselawn Av & Edgerton School,,44.999154,-93.078064,493848.31,4982859.33,MAPLEWOOD,10,10,Weekday,0,0
71,S,18219,Roselawn Av & Edgerton School,,44.999154,-93.078064,493848.31,4982859.33,MAPLEWOOD,1,1,Weekday,,
71,N,18220,Roselawn Av & Desoto St,RODE,44.999129,-93.081150,493605.08,4982856.90,MAPLEWOOD,10,10,Weekday,0,0
71,S,18220,Roselawn Av & Desoto St,RODE,44.999129,-93.081150,493605.08,4982856.90,MAPLEWOOD,1,1,Weekday,0,0
71,N,18233,Edgerton St & CR B-2,,45.011661,-93.076305,493988.21,4984248.62,LITTLE CANADA,14,14,Weekday,0,1
71,N,18236,Edgerton St & #2566,,45.018605,-93.076357,493984.86,4985020.07,LITTLE CANADA,12,12,Weekday,0,0
71,S,18245,Edgerton St & #2575,,45.018773,-93.076504,493973.28,4985038.66,LITTLE CANADA,14,14,Weekday,2,0
71,S,18248,Edgerton St & CR B-2,,45.011842,-93.076452,493976.63,4984268.73,LITTLE CANADA,14,14,Weekday,1,0
71,N,40002,Ada St & Congress / Winifred St,ADCO,44.931490,-93.075531,494040.94,4975342.65,SAINT PAUL,5,5,Weekday,2,1
71,S,40002,Ada St & Congress / Winifred St,ADCO,44.931490,-93.075531,494040.94,4975342.65,SAINT PAUL,5,5,Weekday,0,1
71,S,40030,Westminster St & #1325,,44.981453,-93.086286,493198.17,4980893.68,SAINT PAUL,33,33,Weekday,25,2
71,S,40047,Dawn Av E & 75 St E,75DA,44.840883,-93.024478,498066.45,4965275.08,INVER GROVE HEIGHTS,16,16,Weekday,1,4
71,N,40055,Concord Exchange & #151,,44.888841,-93.033662,497342.85,4970602.69,SOUTH SAINT PAUL,19,19,Weekday,0,0
71,S,40065,Concord St S & Concord Exchange,,44.881781,-93.032067,497468.43,4969818.44,SOUTH SAINT PAUL,7,7,Weekday,0,1
71,S,40065,Concord St S & Concord Exchange,CXCO,44.881781,-93.032067,497468.43,4969818.44,SOUTH SAINT PAUL,4,4,Weekday,0,0
71,S,40068,Westminster St & Cottage St E,,44.983020,-93.086304,493196.95,4981067.72,SAINT PAUL,33,33,Weekday,12,1
71,S,40091,Westminster St & Hyacinth Av E,,44.979645,-93.086295,493197.26,4980692.81,SAINT PAUL,33,33,Weekday,5,1
71,N,40099,Concord St & Kansas St,,44.926038,-93.066760,494732.54,4974736.40,SAINT PAUL,23,23,Weekday,20,1
71,S,40113,River Park Plaza & Comcast,,44.942953,-93.084018,493372.52,4976616.71,SAINT PAUL,25,25,Weekday,1,17
71,S,40126,Robert St S & Plato Blvd,,44.937733,-93.082075,493525.22,4976036.68,SAINT PAUL,23,23,Weekday,0,1
71,S,40128,Cesar Chavez & Robert / State,STCO,44.930590,-93.079462,493730.66,4975242.98,SAINT PAUL,23,23,Weekday,2,11
71,S,40149,University Av & Valley Apts - #261,,44.957282,-93.094566,492542.24,4978209.30,SAINT PAUL,55,55,Weekday,19,3
71,S,40152,Concord St S & Villaume (6 St),,44.879937,-93.032059,497469.04,4969613.61,SOUTH SAINT PAUL,16,16,Weekday,0,1
71,N,41059,Little Canada Rd & Noel Dr,,45.020856,-93.079652,493725.48,4985270.31,LITTLE CANADA,14,14,Weekday,0,0
71,N,41061,Little Canada Rd & McMenemy St,,45.021028,-93.083761,493401.78,4985289.81,LITTLE CANADA,14,14,Weekday,0,0
71,S,41063,Little Canada Rd & Centerville Rd,,45.022301,-93.087933,493073.20,4985431.55,LITTLE CANADA,14,14,Weekday,5,2
71,S,41064,Little Canada Rd & McMenemy St,,45.020900,-93.083684,493407.87,4985275.49,LITTLE CANADA,14,14,Weekday,0,0
71,S,41066,Little Canada Rd & Noel Dr,,45.020757,-93.079942,493702.62,4985259.33,LITTLE CANADA,14,14,Weekday,0,0
71,S,41068,Little Canada Rd & Edgerton St,EDLC,45.020737,-93.076569,493968.40,4985256.90,LITTLE CANADA,14,14,Weekday,1,0
71,N,41144,Armour Av & Concord St,,44.884789,-93.031861,497484.89,4970152.50,SOUTH SAINT PAUL,2,2,Weekday,7,0
71,N,41145,Armour Av & Farwell Av,,44.885711,-93.029024,497708.92,4970254.91,SOUTH SAINT PAUL,2,2,Weekday,6,0
71,N,41146,Armour Av & AFSCME,ARHA,44.887614,-93.024606,498057.91,4970466.14,SOUTH SAINT PAUL,4,4,Weekday,10,1
71,N,41147,Hardman Av & #155,,44.892859,-93.028812,497725.98,4971048.92,SOUTH SAINT PAUL,4,4,Weekday,4,0
71,N,41148,Grand Av E & Hardman Av,,44.894376,-93.030943,497557.73,4971217.48,SOUTH SAINT PAUL,4,4,Weekday,1,0
71,N,41149,Grand Av & Bridgepoint / Concord,,44.893368,-93.033892,497324.87,4971105.61,SOUTH SAINT PAUL,4,4,Weekday,3,0
71,S,41150,Grand Av & Concord / Bridgepoint,,44.893423,-93.033205,497379.12,4971111.71,SOUTH SAINT PAUL,4,4,Weekday,0,4
71,S,41151,Grand Av & Bridgepoint / Hardman,,44.894005,-93.031650,497501.96,4971176.33,SOUTH SAINT PAUL,4,4,Weekday,0,0
71,S,41152,Hardman Av & #155,,44.892769,-93.028877,497720.80,4971038.86,SOUTH SAINT PAUL,4,4,Weekday,0,6
71,S,41153,Armour Av & Hardman Av,ARHA,44.887894,-93.024154,498093.57,4970497.23,SOUTH SAINT PAUL,4,4,Weekday,0,1
71,S,41154,Armour Av & Farwell Av,,44.885774,-93.029156,497698.55,4970261.93,SOUTH SAINT PAUL,4,4,Weekday,0,18
71,S,41155,Armour Av & Concord St,,44.884885,-93.031919,497480.31,4970163.17,SOUTH SAINT PAUL,4,4,Weekday,0,19
71,N,42117,Chester St & #261 - Fed Ex,,44.938489,-93.072021,494318.62,4976119.89,SAINT PAUL,1,1,Weekday,,
71,S,42117,Chester St & #261 - Fed Ex,,44.938489,-93.072021,494318.62,4976119.89,SAINT PAUL,12,12,Weekday,0,1
71,N,42118,Lafayette Rd E & #341 - Front,CHEL,44.936532,-93.073158,494228.70,4975902.57,SAINT PAUL,12,12,Weekday,7,2
71,S,42118,Lafayette Rd E & #341 - Front,CHEL,44.936532,-93.073158,494228.70,4975902.57,SAINT PAUL,12,12,Weekday,0,10
71,N,42119,Lafayette Rd E & Riverview Plaza,,44.938186,-93.074048,494158.60,4976086.36,SAINT PAUL,12,12,Weekday,0,0
71,N,42880,Fillmore Av E & Lafayette Rd W,,44.943709,-93.078460,493811.13,4976700.23,SAINT PAUL,23,23,Weekday,0,0
71,N,43286,80 St E & Bowman Av,,44.833474,-93.050831,495983.13,4964453.04,INVER GROVE HEIGHTS,9,9,Weekday,0,0
71,N,43287,80 St E & Boyd Av,,44.833506,-93.048109,496198.32,4964456.39,INVER GROVE HEIGHTS,9,9,Weekday,1,0
71,S,43290,80 St E & Boyd Av,,44.833613,-93.047855,496218.44,4964468.28,INVER GROVE HEIGHTS,11,11,Weekday,0,1
71,S,43291,80 St E & Bowman Av,,44.833584,-93.050546,496005.69,4964465.23,INVER GROVE HEIGHTS,11,11,Weekday,0,0
71,N,43293,Edgerton St & Sunrise Court,,45.013461,-93.076319,493987.30,4984448.56,LITTLE CANADA,12,12,Weekday,0,0
71,N,43297,Edgerton St & Roselawn Av,,44.999207,-93.076347,493983.64,4982865.13,MAPLEWOOD,10,10,Weekday,0,1
71,S,43297,Edgerton St & Roselawn Av,,44.999207,-93.076347,493983.64,4982865.13,MAPLEWOOD,23,23,Weekday,2,0
71,S,43394,Edgerton St & Sunset Court,,45.016419,-93.076490,493974.19,4984777.14,LITTLE CANADA,14,14,Weekday,0,0
71,N,43495,Chester St & #341 - Rear,,44.937117,-93.071996,494320.45,4975967.49,SAINT PAUL,1,1,Weekday,,
71,S,43495,Chester St & #341 - Rear,,44.937117,-93.071996,494320.45,4975967.49,SAINT PAUL,12,12,Weekday,0,0
71,N,43496,80 St E & Cahill Av,80CH,44.833963,-93.043235,496583.59,4964506.99,INVER GROVE HEIGHTS,13,13,Weekday,8,0
71,S,43496,80 St E & Cahill Av,80CH,44.833963,-93.043235,496583.59,4964506.99,INVER GROVE HEIGHTS,5,5,Weekday,0,6
71,S,43770,Westminster St & Arlington Av,,44.984649,-93.086314,493196.34,4981248.77,SAINT PAUL,33,33,Weekday,20,2
71,S,45305,Marketplace Dr & Little Canada,,45.026194,-93.101899,491973.48,4985865.28,LITTLE CANADA,14,14,Weekday,2,0
71,S,45306,Little Canada Rd & Jackson St,,45.024862,-93.096991,492359.97,4985716.84,LITTLE CANADA,14,14,Weekday,1,0
71,S,45307,Little Canada Rd & CR C,,45.023672,-93.092760,492693.12,4985584.25,LITTLE CANADA,14,14,Weekday,8,1
71,N,45313,Little Canada Rd & Fleur Royale Condos,,45.023897,-93.093232,492655.93,4985609.25,LITTLE CANADA,14,14,Weekday,3,9
71,N,45314,Little Canada Rd & Jackson St,,45.024884,-93.096670,492385.27,4985719.28,LITTLE CANADA,14,14,Weekday,1,1
71,N,46980,Rice St & Marketplace S Entrance,,45.027236,-93.106087,491643.69,4985981.41,LITTLE CANADA,14,14,Weekday,1,3
71,N,47044,Concord St & Hwy 52 Ramp,,44.927184,-93.069141,494544.78,4974863.80,SAINT PAUL,23,23,Weekday,18,0
71,S,47046,Concord St & Hwy 52 Ramp,,44.926956,-93.069013,494554.84,4974838.51,SAINT PAUL,23,23,Weekday,0,39
71,S,47048,Blaine Av & Hills Apartments,,44.828927,-93.051996,495890.78,4963947.98,INVER GROVE HEIGHTS,7,7,Weekday,0,0
71,S,47049,Blaine Av & College Trail,,44.827202,-93.050571,496003.25,4963756.26,INVER GROVE HEIGHTS,7,7,Weekday,,
71,S,47050,College Trail & Brewster Av,,44.827280,-93.047803,496222.10,4963764.80,INVER GROVE HEIGHTS,7,7,Weekday,0,0
71,N,47054,College Trail & Brewster Av,,44.827390,-93.047684,496231.55,4963776.99,INVER GROVE HEIGHTS,6,6,Weekday,0,0
71,N,47055,Blaine Av & Hills Apartments,,44.828664,-93.051668,495916.69,4963918.72,INVER GROVE HEIGHTS,6,6,Weekday,0,0
71,S,47057,80 St E & Cahill Av,80CH,44.833968,-93.043775,496540.92,4964507.59,INVER GROVE HEIGHTS,11,11,Weekday,1,1
71,S,47058,Blaine Av & 80 St E,,44.833324,-93.054919,495660.05,4964436.58,INVER GROVE HEIGHTS,11,11,Weekday,0,1
71,S,47356,Jackson St & 12 St,,44.953747,-93.095059,492502.92,4977816.71,SAINT PAUL,56,56,Weekday,3,3
71,N,47802,University Av & Valley Apts - #261,,44.957343,-93.093863,492597.71,4978216.00,SAINT PAUL,52,52,Weekday,6,19
71,S,47816,Fillmore (Bayfield) & Plato Blvd,,44.942533,-93.072265,494299.72,4976569.16,SAINT PAUL,25,25,Weekday,0,3
71,S,48190,Edgerton St & Sunrise Dr,,45.013628,-93.076466,493975.72,4984467.16,LITTLE CANADA,14,14,Weekday,0,0
71,N,48569,Dawn Av & Upper 73 St E,,44.842554,-93.024382,498074.07,4965460.71,INVER GROVE HEIGHTS,13,13,Weekday,1,0
71,N,48583,80 St E & Simley Lake Condos,,44.833907,-93.039853,496850.90,4964500.58,INVER GROVE HEIGHTS,13,13,Weekday,1,0
71,S,48584,Dawn Av E & Upper 73 St E,,44.842656,-93.024533,498062.18,4965471.98,INVER GROVE HEIGHTS,16,16,Weekday,0,1
71,S,48585,Clayton Av & Claiborne Lane,,44.834422,-93.034413,497280.98,4964557.58,INVER GROVE HEIGHTS,5,5,Weekday,,
71,S,48586,Clayton Av & Charles Way,,44.835305,-93.034521,497272.44,4964655.73,INVER GROVE HEIGHTS,5,5,Weekday,,
71,S,48587,Clayton Av & 78 St E,,44.837083,-93.034511,497273.36,4964853.24,INVER GROVE HEIGHTS,5,5,Weekday,,
71,S,48588,80 St E & Simley Lake Condos,,44.834036,-93.039826,496853.04,4964514.91,INVER GROVE HEIGHTS,11,11,Weekday,0,1
71,S,48634,Concord St S & #1402,,44.868804,-93.026732,497889.36,4968376.73,SOUTH SAINT PAUL,16,16,Weekday,0,1
71,N,48728,Concord St N & Hardman Av,,44.896460,-93.036499,497119.13,4971449.12,SOUTH SAINT PAUL,23,23,Weekday,2,0
71,S,48729,Concord St N & Hardman/Grand,,44.894805,-93.035715,497181.00,4971265.33,SOUTH SAINT PAUL,19,19,Weekday,0,2
71,N,49112,Robert St & 6 St,6ROB,44.948180,-93.091483,492784.25,4977197.97,SAINT PAUL,52,52,Weekday,256,0
71,N,49141,Marketplace & Litt Can Transit Ctr,LCTC,45.027913,-93.103542,491844.25,4986056.39,LITTLE CANADA,14,14,Weekday,0,13
71,S,49141,Marketplace & Litt Can Transit Ctr,LCTC,45.027913,-93.103542,491844.25,4986056.39,LITTLE CANADA,14,14,Weekday,27,1
71,N,49178,Little Canada Rd & Marketplace,,45.025816,-93.101678,491990.86,4985823.22,LITTLE CANADA,14,14,Weekday,0,2
71,N,49179,Little Canada Rd & Middle St,,45.026066,-93.104104,491799.75,4985851.26,LITTLE CANADA,14,14,Weekday,0,2
71,N,49573,Hardman Av & Bridgepoint Dr,,44.890689,-93.025811,497962.81,4970807.82,SOUTH SAINT PAUL,4,4,Weekday,1,0
71,S,49574,Hardman Av & Bridgepoint Dr,,44.890777,-93.026035,497945.14,4970817.58,SOUTH SAINT PAUL,4,4,Weekday,0,0
71,N,49685,Brainerd Av & Burr St,,44.979081,-93.079993,493694.08,4980629.72,SAINT PAUL,19,19,Weekday,0,7
71,N,49686,Brainerd Av & Jessie St,,44.980290,-93.077497,493890.98,4980763.83,SAINT PAUL,19,19,Weekday,0,3
71,N,49687,Brainerd Av & Edgerton St,,44.980895,-93.076261,493988.52,4980830.89,SAINT PAUL,19,19,Weekday,2,3
71,N,49688,Edgerton St & Wheelock Pkwy,,44.986212,-93.076086,494002.84,4981421.59,SAINT PAUL,19,19,Weekday,0,4
71,N,49689,Edgerton St & Hoyt Av,,44.988174,-93.076100,494001.93,4981639.52,SAINT PAUL,19,19,Weekday,1,6
71,N,49690,Edgerton St & Idaho Av,,44.989985,-93.076106,494001.63,4981840.69,SAINT PAUL,19,19,Weekday,0,2
71,N,49691,Edgerton St & Larpenteur Av E,LAEG,44.991823,-93.076132,493999.80,4982044.91,SAINT PAUL,19,19,Weekday,0,3
71,N,49692,Edgerton St & Kingston Av,,44.993645,-93.076150,493998.58,4982247.29,MAPLEWOOD,19,19,Weekday,0,1
71,N,49694,Edgerton St & Bellwood Av,,44.997712,-93.076186,493996.14,4982699.01,MAPLEWOOD,19,19,Weekday,0,2
71,N,49696,Hawthorne Av & Westminster St,,44.978322,-93.086100,493212.50,4980545.90,SAINT PAUL,33,33,Weekday,1,6
71,N,49697,Little Canada Rd & Centerville Rd,,45.022389,-93.087848,493079.91,4985441.30,LITTLE CANADA,14,14,Weekday,2,7
71,N,49698,Edgerton St & Little Canada Rd,EDLC,45.020702,-93.076368,493984.25,4985252.93,LITTLE CANADA,14,14,Weekday,0,2
71,S,49699,Arkwright St & Maryland Av,AWMY,44.977441,-93.083744,493398.12,4980447.75,SAINT PAUL,55,55,Weekday,39,4
71,S,49700,Edgerton St & Bellwood Av,,44.997849,-93.076333,493984.56,4982714.25,MAPLEWOOD,22,22,Weekday,1,0
71,S,49702,Edgerton St & Kingston Av,,44.993826,-93.076297,493987.00,4982267.41,MAPLEWOOD,22,22,Weekday,1,0
71,S,49703,Edgerton St & Larpenteur Av,LAEG,44.992004,-93.076279,493988.21,4982065.02,MAPLEWOOD,22,22,Weekday,3,1
71,S,49704,Edgerton St & Idaho Av,,44.990177,-93.076254,493990.04,4981862.03,SAINT PAUL,22,22,Weekday,3,0
71,S,49705,Edgerton St & Hoyt Av,,44.988369,-93.076247,493990.35,4981661.16,SAINT PAUL,22,22,Weekday,8,0
71,S,49706,Edgerton St & Wheelock Pkwy,,44.986413,-93.076241,493990.65,4981443.84,SAINT PAUL,22,22,Weekday,6,0
71,S,49707,Edgerton St & Arlington Av,,44.984736,-93.076215,493992.48,4981257.61,SAINT PAUL,22,22,Weekday,5,0
71,S,49708,Brainerd Av & Jessie St,,44.980565,-93.077169,493916.89,4980794.31,SAINT PAUL,22,22,Weekday,4,0
71,S,49709,Brainerd Av & Burr St,,44.979298,-93.079757,493712.67,4980653.80,SAINT PAUL,22,22,Weekday,11,0
71,N,49784,Little Canada Rd & Park View Ct,,45.024600,-93.095609,492468.78,4985687.58,LITTLE CANADA,14,14,Weekday,0,0
71,S,49785,Little Canada Rd & Park View Ct,,45.024572,-93.095903,492445.62,4985684.53,LITTLE CANADA,14,14,Weekday,,
71,N,49935,Robert St & 5 St,,44.947371,-93.090690,492846.74,4977108.05,SAINT PAUL,34,34,Weekday,153,180
71,N,49936,Robert St & 7 Place,,44.949112,-93.092400,492712.01,4977301.60,SAINT PAUL,52,52,Weekday,31,8
71,S,49950,Robert St & 9 St,,44.950346,-93.093778,492603.51,4977438.76,SAINT PAUL,56,56,Weekday,8,82
71,S,49951,Robert St & 7 Place,,44.949049,-93.092532,492701.65,4977294.59,SAINT PAUL,56,56,Weekday,26,166
71,S,49952,Robert St & 6 St / 5 St,6ROB,44.947744,-93.091251,492802.54,4977149.50,SAINT PAUL,56,56,Weekday,228,0
71,S,49995,Robert St & Kellogg Blvd,,44.945987,-93.089559,492935.74,4976954.13,SAINT PAUL,56,56,Weekday,51,33
71,N,50024,Concord - Node & Concord Exch,CXCO,44.881850,-93.031658,497500.74,4969826.06,SOUTH SAINT PAUL,2,2,Weekday,0,0
71,N,50092,Edgerton St & Roselawn Ave,,44.998996,-93.076200,493995.22,4982841.66,MAPLEWOOD,19,19,Weekday,0,2
71,N,50190,Robert St & 6th St - Arrive,6RAR,44.948180,-93.091483,492784.25,4977197.97,SAINT PAUL,53,53,Weekday,0,73
71,S,50191,Robert St & 6th St / 5th St - Arrive,6RAR,44.947744,-93.091251,492802.54,4977149.50,SAINT PAUL,56,56,Weekday,0,282
71,N,50667,Blaine Av & 80 St E,,44.833393,-93.054784,495670.71,4964444.20,INVER GROVE HEIGHTS,9,9,Weekday,0,0
71,N,50747,McMenemy St & Sloan Place,,45.001828,-93.086514,493182.63,4983157.12,MAPLEWOOD,19,19,Weekday,0,3
71,S,50747,McMenemy St & Sloan Place,,45.001828,-93.086514,493182.63,4983157.12,MAPLEWOOD,14,14,Weekday,4,0
71,N,50848,Robert St & 9 St,,44.950467,-93.093701,492609.60,4977452.17,SAINT PAUL,52,52,Weekday,15,6
71,S,51134,Westminster St & Hawthorne Av,,44.978429,-93.086293,493197.26,4980557.79,SAINT PAUL,33,33,Weekday,6,1
71,S,51272,Chester St & Plato Blvd,CHPL,44.940824,-93.072816,494256.13,4976379.27,SAINT PAUL,12,12,Weekday,0,5
71,N,51291,Sloan Place & Roselawn Av,SLRO,45.001100,-93.087333,493118.01,4983076.35,MAPLEWOOD,38,38,Weekday,1,28
71,S,51291,Sloan Place & Roselawn Av,SLRO,45.001100,-93.087333,493118.01,4983076.35,MAPLEWOOD,41,41,Weekday,36,8
71,N,51611,Robert St & 11 St,,44.952139,-93.095307,492483.11,4977638.10,SAINT PAUL,52,52,Weekday,36,11
71,N,53340,Cafferty Court & Cahill Walmart,CFCA,44.814568,-93.040006,496837.80,4962352.35,INVER GROVE HEIGHTS,6,6,Weekday,5,0
71,S,53340,Cafferty Court & Cahill Walmart,CFCA,44.814568,-93.040006,496837.80,4962352.35,INVER GROVE HEIGHTS,7,7,Weekday,0,4
71,N,53402,Cahill Ave & Cheney Trail,,44.817751,-93.039133,496906.99,4962705.92,INVER GROVE HEIGHTS,6,6,Weekday,2,0
71,N,53403,Cahill Ave & Carter Ave,,44.820782,-93.041016,496758.24,4963042.72,INVER GROVE HEIGHTS,6,6,Weekday,0,0
71,N,53404,Cahill Ave & Birch Blvd,,44.824560,-93.041983,496682.04,4963462.43,INVER GROVE HEIGHTS,6,6,Weekday,,
71,N,53405,College Trail & Cahill Ave,,44.827886,-93.040940,496764.64,4963831.85,INVER GROVE HEIGHTS,6,6,Weekday,0,0
71,S,53406,Cahill Ave & Brooks Blvd,,44.824763,-93.042041,496677.47,4963484.99,INVER GROVE HEIGHTS,7,7,Weekday,0,1
71,S,53407,Cahill Ave & Bechtel Ave,,44.821068,-93.041302,496735.69,4963074.42,INVER GROVE HEIGHTS,7,7,Weekday,0,0
71,S,53408,Cahill Ave & Cheney Trail,,44.817943,-93.039253,496897.54,4962727.25,INVER GROVE HEIGHTS,7,7,Weekday,0,3
71,N,56140,Cayuga St (S) & Arkwright St,CYAR,44.965656,-93.084117,493367.34,4979138.63,SAINT PAUL,52,52,Weekday,4,30
71,N,56141,Cayuga St E & Arkwright St,,44.967365,-93.084019,493375.26,4979328.52,SAINT PAUL,52,52,Weekday,1,18
71,N,56142,Westminster St & York Ave,,44.968012,-93.085427,493264.31,4979400.46,SAINT PAUL,52,52,Weekday,2,22
71,S,56143,Westminster St & York Ave,,44.968195,-93.085570,493253.04,4979420.88,SAINT PAUL,55,55,Weekday,31,3
71,S,56144,Cayuga St E & Arkwright St,,44.967261,-93.083857,493388.06,4979316.94,SAINT PAUL,55,55,Weekday,13,1
71,S,56145,Cayuga St (S) & Arkwright St,CYAR,44.965710,-93.084407,493344.48,4979144.73,SAINT PAUL,55,55,Weekday,30,3
